{"postalcodes":[{"adminCode3":"70805","adminName2":"Politischer Bezirk Reutte","adminName3":"Breitenwang","adminCode2":"708","postalcode":"6600","adminCode1":"07","countryCode":"AT","lng":10.7333333,"placeName":"Breitenwang","lat":47.4833333,"adminName1":"Tirol"},{"adminCode3":"70806","adminName2":"Politischer Bezirk Reutte","adminName3":"Ehenbichl","adminCode2":"708","postalcode":"6600","adminCode1":"07","countryCode":"AT","lng":10.7,"placeName":"Ehenbichl","lat":47.4666667,"adminName1":"Tirol"},{"adminCode3":"70820","adminName2":"Politischer Bezirk Reutte","adminName3":"Lechaschau","adminCode2":"708","postalcode":"6600","adminCode1":"07","countryCode":"AT","lng":10.706520080566406,"placeName":"Lechaschau","lat":47.488035007826824,"adminName1":"Tirol"},{"adminCode3":"70822","adminName2":"Politischer Bezirk Reutte","adminName3":"Musau","adminCode2":"708","postalcode":"6600","adminCode1":"07","countryCode":"AT","lng":10.6666667,"placeName":"Musau","lat":47.5333333,"adminName1":"Tirol"},{"adminCode3":"70826","adminName2":"Politischer Bezirk Reutte","adminName3":"Pflach","adminCode2":"708","postalcode":"6600","adminCode1":"07","countryCode":"AT","lng":10.7,"placeName":"Oberletzen","lat":47.5166667,"adminName1":"Tirol"},{"adminCode3":"70827","adminName2":"Politischer Bezirk Reutte","adminName3":"Pinswang","adminCode2":"708","postalcode":"6600","adminCode1":"07","countryCode":"AT","lng":10.6833333,"placeName":"Oberpinswang","lat":47.5333333,"adminName1":"Tirol"},{"adminCode3":"70826","adminName2":"Politischer Bezirk Reutte","adminName3":"Pflach","adminCode2":"708","postalcode":"6600","adminCode1":"07","countryCode":"AT","lng":10.7166667,"placeName":"Pflach","lat":47.5166667,"adminName1":"Tirol"},{"adminCode3":"70828","adminName2":"Politischer Bezirk Reutte","adminName3":"Reutte","adminCode2":"708","postalcode":"6600","adminCode1":"07","countryCode":"AT","lng":10.7166667,"placeName":"Reutte","lat":47.4833333,"adminName1":"Tirol"},{"adminCode3":"70826","adminName2":"Politischer Bezirk Reutte","adminName3":"Pflach","adminCode2":"708","postalcode":"6600","adminCode1":"07","countryCode":"AT","lng":10.7,"placeName":"Unterletzen","lat":47.5166667,"adminName1":"Tirol"},{"adminCode3":"70827","adminName2":"Politischer Bezirk Reutte","adminName3":"Pinswang","adminCode2":"708","postalcode":"6600","adminCode1":"07","countryCode":"AT","lng":10.6666667,"placeName":"Unterpinswang","lat":47.5333333,"adminName1":"Tirol"}]}